stop_lon,stop_name,stop_lat,stop_id,location_type
10.90421171,Chnib,33.76548813,216,0
10.90915595,Krouna,33.76045503,217,0
10.89069073,Echhoud,33.78025017,214,0
10.89583677,Robana,33.77437921,215,0
10.79518184,Elkhlifi,33.79316668,212,0
10.79205385,Eljaabira,33.79601771,213,0
10.79911705,Elmaassra,33.7893931,210,0
10.79679628,Karouia,33.79140569,211,0
10.89625478,Denguir,33.83137284,165,0
10.91510921,Angar Hmida,33.75508607,218,0
10.86405238,Elfahmin,33.71103112,219,0
11.01147602,Cap Jerba,33.76116068,133,0
11.01354435,Aguir,33.75817579,132,0
10.95789473,Elkoucha,33.79012815,131,0
10.95059706,Latrech,33.78539281,130,0
11.02310546,Palmasur,33.76661108,137,0
11.02743724,Sidi Slim,33.7701796,136,0
11.03130071,Hari Club,33.77313163,135,0
11.0058174,Elgassala,33.76943346,134,0
11.01658829,Palmariva,33.76226376,139,0
11.02021762,Diva,33.76437256,138,0
10.90843058,Tinisset,33.82164711,166,0
10.96767049,Eljazira,33.86605226,24,0
10.96798269,Dalli,33.86109429,25,0
10.97395351,Holiday,33.85914991,26,0
10.97840236,Elmadina,33.85516379,27,0
10.94542625,Elmagtaa,33.86887138,20,0
10.93742613,Ras ettabia,33.87010268,21,0
10.9533093,Athene,33.86926021,22,0
10.95959232,Ulysse,33.86731602,23,0
10.870431,Allamet,33.823002,160,0
10.9831634,Abou Nawess,33.85571473,28,0
10.98687078,Palm Beach,33.85169604,29,0
10.8745569,Walagh 1,33.82566721,161,0
10.7988301,Mellita 2,33.86370184,0,0
10.77720177,L'aéroport,33.86957927,4,0
10.84298569,Bir mgalas,33.87288926,8,0
10.88247897,Elbkalti,33.82725575,163,0
10.92726013,Zaatout,33.74097823,119,0
10.9328407,Erraes,33.74334715,120,0
10.93943592,Bounouh,33.75009661,121,0
10.94208962,Edhira,33.75437965,122,0
10.94454819,Ballagha,33.75853269,123,0
10.95469468,Ben Thayer,33.7493503,124,0
10.96257773,Bni Maaguel,33.74737093,125,0
10.96210943,La poste,33.75197858,126,0
10.95348491,Bir Bouaziz,33.76404814,127,0
10.95032389,Elhajjam,33.77173673,128,0
10.94271402,Bedouin,33.77669988,129,0
10.9084696,Gachayin,33.82939536,167,0
10.92039173,Dar Echabeb,33.74701399,118,0
11.03922278,Carthago,33.7786137,59,0
11.03555443,Elmaamoura,33.77708913,58,0
11.01135895,Arko,33.78224659,55,0
11.0044125,Mosquet Arko,33.78260339,54,0
11.02665674,Elmoustaoussef,33.78438733,57,0
11.02013957,Elwachnia,33.7811762,56,0
10.99383673,Mosquet Ben Ammar,33.79846299,51,0
10.96616803,Mahboubine,33.79697121,50,0
10.99879291,Elazmouni,33.78464681,53,0
10.99504651,Essaegh,33.79252815,52,0
10.88786441,Bakir,33.82887667,164,0
10.74624397,Elkharouba,33.73352475,201,0
10.79074212,Elkhnansa,33.7516482,199,0
10.85317574,Elbassatin,33.84989699,179,0
10.7795419,Ben Marzoug,33.7470338,200,0
10.83443304,Jaballah 2,33.85083973,195,0
10.83695561,Jaballah 1,33.85276708,194,0
10.82293012,Bazim,33.83868803,197,0
10.855069,Erriadh,33.819634,178,0
10.84533054,Elhachen,33.86173288,191,0
10.84755041,Elbarkaoui,33.86424649,190,0
10.83967999,Saoud,33.85469439,193,0
10.84210165,Sidi Hassen,33.85779475,192,0
10.91258674,Tafertast,33.74260079,115,0
10.89326937,Oursighen 1,33.73464995,114,0
10.9020821,ElKabou,33.7968814,88,0
10.884753,Elmay,33.801815,89,0
10.86673239,Elmat'haf,33.72910016,111,0
10.86193232,Ben Ammar,33.71517541,110,0
10.88819613,Ben Mchichi,33.73292988,113,0
10.88644,Oursighen 2,33.72955454,112,0
10.94864581,Ettouta,33.79992232,82,0
10.93931884,elmehrab,33.79450648,83,0
10.97014857,Mosquet Elgayed 2,33.80916414,80,0
10.95504591,Elweryemmi,33.80089519,81,0
10.91590386,Ben Hamouda,33.79531725,86,0
10.908841,Hadj Dahmane,33.796581,87,0
10.93182605,Elhajra elbidha,33.79230112,84,0
10.9228503,Elhazem,33.79226869,85,0
10.80375858,Ben Yakhlef,33.75986962,198,0
10.75996675,26-26,33.76356061,206,0
10.79042455,Essouissi,33.86606919,3,0
10.8500982,Zenkri,33.80865755,177,0
10.83900515,Elhimaya,33.87007028,7,0
10.85073215,Tilouin,33.73834962,108,0
10.85900545,Almakha,33.72010938,109,0
10.76608698,Hwanet Fadhel,33.7285484,102,0
10.77494565,La methania,33.72929489,103,0
10.80612983,Barbouch,33.78659348,100,0
10.74497447,Ajim,33.72092086,101,0
10.84573695,Elkhaway 2,33.73189133,106,0
10.85291755,Gallala,33.73039839,107,0
10.78341407,Ben Azoun,33.72968436,104,0
10.84046858,Elkhaway 1,33.73179396,105,0
11.01645171,Yadis,33.82618592,39,0
11.01317361,Golf,33.82732059,38,0
10.99295867,R.D.V,33.8390878,33,0
10.99565139,Dar Midoun,33.84362568,32,0
10.9889391,Yasmina,33.84320432,31,0
10.98730005,Toumana,33.84699653,30,0
11.00954429,Plazza,33.82884426,37,0
11.00513446,Elhana,33.83195635,36,0
11.00080269,Minenx,33.83665669,35,0
10.99900754,Hasdrubal,33.84006022,34,0
10.75613245,Bel Haj Yahyia,33.75903074,205,0
10.85862449,Dyguet,33.81205302,176,0
11.04343748,Calipso,33.7808194,60,0
11.0494083,Jerba La douce,33.78163031,61,0
11.05498887,Jerba Menzel,33.78263582,62,0
11.05483277,Jerba La fidèle,33.78536038,63,0
11.0497205,Ejmel,33.78714427,64,0
11.03906668,Elmadrassa,33.79123086,65,0
11.03079338,Ben Nacr,33.79440918,66,0
11.00074415,Mosquet Ben Achour,33.80465685,67,0
11.01007112,Hanout Bouzguin,33.7990143,68,0
11.02934946,Tazdin,33.80858047,69,0
10.85877585,Elghriba,33.81477767,175,0
10.879975,Mosbah,33.809331,174,0
10.876903,Ben Moussa,33.812803,173,0
10.94974827,Mosquet Boulaymane,33.82962229,172,0
10.92290884,Sadguyène 1,33.83672152,171,0
10.92138687,Sadguyène 2,33.82673705,170,0
10.75189453,Bousmael,33.75030586,203,0
10.8896973,Le Collège,33.799251,222,0
10.85161175,Ejadoui,33.82990841,181,0
10.8551938,Elmakbara,33.82324451,182,0
10.8446999,Eroua,33.82102309,183,0
10.85125859,Errahba,33.84072042,180,0
10.82517735,Mosquet Kébir,33.86370184,2,0
10.87748377,Walagh 2,33.82625076,162,0
10.84545667,Ezayat,33.79712875,187,0
10.83723309,Elahouach,33.81892736,184,0
10.78541071,Margane 2,33.855783,6,0
10.862598,Lycée Technique,33.868835,220,0
10.85050181,Eljenni,33.80433968,186,0
10.7829726,Elgroo,33.79870095,188,0
10.84956846,Hnini,33.86726272,189,0
10.75038098,Fekih Amor,33.74543967,202,0
10.83059873,Slim,33.8469849,196,0
10.86498,Errahma,33.865279,221,0
10.83360059,Majin,33.81708308,185,0
10.80833384,Oued Ezbib,33.78139014,99,0
10.81239456,Elassayda,33.76755689,98,0
10.90683055,Mosquet Elyounsi,33.83396618,168,0
10.92478204,Erramla,33.82180921,169,0
10.86509334,Oued amgar,33.79356596,91,0
10.88827418,Elmaabri,33.78840919,90,0
10.84359058,Ben Arbi,33.79100383,93,0
10.84671258,Allamet Esrandi,33.78607394,92,0
10.84178313,Mosquet Ellil,33.78367698,95,0
10.84952238,Ben Aissa,33.77588893,94,0
10.82010427,Srendi,33.7734996,97,0
10.83304015,Ben Terdayet,33.77948192,96,0
10.88622537,Fatou1,33.87055632,11,0
10.86589335,L'hôpital,33.86673275,10,0
10.87047879,Elwilayia,33.87927211,13,0
10.86076157,Station Elmarsa,33.88199359,12,0
10.8908108,Lobirette,33.87535174,15,0
10.88015698,Sidi Zayed,33.87745775,14,0
10.90396222,Sidi Ismail,33.87470372,17,0
10.89916215,Fatou2,33.87376409,16,0
10.9290943,Croisement Guisen,33.87344008,19,0
10.91008914,Arouay,33.87314847,18,0
10.91980636,Sedwikech,33.74341205,117,0
10.91172819,Elhouch,33.74704644,116,0
10.75401349,Fekih Massaoud,33.75542344,204,0
10.90702568,Hanout Salah,33.85276555,151,0
10.89765968,Elassas,33.85467767,150,0
10.92497717,Croisement Ibn Sina,33.84330156,153,0
10.91725022,Elmajen,33.847191,152,0
10.92848941,Ben Madi,33.8628442,155,0
10.93001139,Guisen,33.85837215,154,0
10.95010925,Mezraya,33.85458044,157,0
10.92848941,Elmestiri,33.86673275,156,0
10.86944463,Bir Ben Amor,33.83150251,159,0
10.868151,Omajen 3,33.842877,158,0
10.76269113,Mezran,33.77010334,207,0
10.97231446,Mosquet Elgayed 1,33.81808073,48,0
10.97311447,Boufaden,33.79878729,49,0
10.98511465,Hadher bach,33.80368402,46,0
10.97777796,Fadhloun,33.81649202,47,0
11.04095939,Phare Ennadhour,33.82456494,44,0
10.99082,Midoun,33.805388,45,0
11.02710552,Abou Nawess Golf,33.82638044,42,0
11.0301885,Dar Jeba,33.82702882,43,0
11.01953468,Elmahari,33.82550511,40,0
11.02312498,Elmanara,33.82527818,41,0
10.81067653,Mellita 1,33.86268142,1,0
10.79199752,Margane 1,33.85802811,5,0
10.858049,Houmet Souk,33.872285,9,0
10.866682,Essouani,33.85203,146,0
10.87982527,Souk Ejoumla,33.85931195,147,0
10.84636135,Ezitouna,33.75570994,144,0
10.84487841,Echaouchia,33.76038202,145,0
10.91340626,Oued Ajmi,33.71994708,142,0
10.84620525,Etlat,33.74960989,143,0
10.91637216,Elkantara,33.68069464,140,0
10.91250869,Elmhamid,33.71225385,141,0
10.77510218,Eddaoula,33.78813521,209,0
10.76733266,Ben Hafsia,33.7785746,208,0
10.88696684,Houassa,33.85658974,148,0
10.89172789,Echahben,33.85539065,149,0
11.01307605,Elmgarsa,33.81438451,77,0
11.02279326,Yati,33.81720533,76,0
11.02981776,Elfitouri,33.81924793,75,0
11.03574956,Maamar,33.81944246,74,0
11.05522302,Tanit,33.80407315,73,0
11.04277405,Djerba Explorer (Ettmassi7),33.81889129,72,0
11.04386675,Dar Edhaou,33.81243907,71,0
11.0501888,Dar Hamouda,33.7941173,70,0
10.97920237,Khazroun,33.8079968,79,0
11.00343688,Elmhiri,33.81347664,78,0
